[
  {
    "url": "http://www.town.ashland.va.us/",
    "long": "-77.47",
    "name": "Ashland",
    "state": {
      "name": "Virginia",
      "abbreviation": "VA"
    },
    "lat": "37.75"
  },
  {
    "url": "http://www.bigstonegap.org/",
    "long": "-82.74",
    "name": "Big Stone Gap",
    "state": {
      "name": "Virginia",
      "abbreviation": "VA"
    },
    "lat": "36.88"
  },
  {
    "url": "http://www.blacksburg.va.us/",
    "long": "-80.41",
    "name": "Blacksburg",
    "state": {
      "name": "Virginia",
      "abbreviation": "VA"
    },
    "lat": "37.22"
  },
  {
    "url": "http://www.townofbowlinggreen.com/",
    "long": "-77.34",
    "name": "Bowling Green",
    "state": {
      "name": "Virginia",
      "abbreviation": "VA"
    },
    "lat": "38.04"
  },
  {
    "url": "http://town.bridgewater.va.us/",
    "long": "-78.97",
    "name": "Bridgewater",
    "state": {
      "name": "Virginia",
      "abbreviation": "VA"
    },
    "lat": "38.38"
  },
  {
    "url": "http://www.bristolva.org/",
    "long": "-82.18",
    "name": "Bristol",
    "state": {
      "name": "Virginia",
      "abbreviation": "VA"
    },
    "lat": "36.59"
  },
  {
    "url": "http://www.town.broadway.va.us/",
    "long": "-78.79",
    "name": "Broadway",
    "state": {
      "name": "Virginia",
      "abbreviation": "VA"
    },
    "lat": "38.61"
  },
  {
    "url": "http://www.buenavistavirginia.org/",
    "long": "-79.35",
    "name": "Buena Vista",
    "state": {
      "name": "Virginia",
      "abbreviation": "VA"
    },
    "lat": "37.73"
  },
  {
    "url": "http://capecharles.org/",
    "long": "-76.01",
    "name": "Cape Charles",
    "state": {
      "name": "Virginia",
      "abbreviation": "VA"
    },
    "lat": "37.26"
  },
  {
    "url": "http://www.charlottesville.org/",
    "long": "-78.47",
    "name": "Charlottesville",
    "state": {
      "name": "Virginia",
      "abbreviation": "VA"
    },
    "lat": "38.02"
  },
  {
    "url": "http://www.chesapeake.va.us/",
    "long": "-76.27",
    "name": "Chesapeake",
    "state": {
      "name": "Virginia",
      "abbreviation": "VA"
    },
    "lat": "36.81"
  },
  {
    "url": "http://www.chincoteague-va.gov/",
    "long": "-75.37",
    "name": "Chincoteague",
    "state": {
      "name": "Virginia",
      "abbreviation": "VA"
    },
    "lat": "37.93"
  },
  {
    "url": "http://www.christiansburg.org/",
    "long": "-80.4",
    "name": "Christiansburg",
    "state": {
      "name": "Virginia",
      "abbreviation": "VA"
    },
    "lat": "37.12"
  },
  {
    "url": "http://www.cliftonforge.org/",
    "long": "-79.82",
    "name": "Clifton Forge",
    "state": {
      "name": "Virginia",
      "abbreviation": "VA"
    },
    "lat": "37.81"
  },
  {
    "url": "http://www.colonial-heights.com/",
    "long": "-77.41",
    "name": "Colonial Heights",
    "state": {
      "name": "Virginia",
      "abbreviation": "VA"
    },
    "lat": "37.24"
  },
  {
    "url": "http://www.covington.va.us/",
    "long": "-79.99",
    "name": "Covington",
    "state": {
      "name": "Virginia",
      "abbreviation": "VA"
    },
    "lat": "37.79"
  },
  {
    "url": "http://www.culpeper.to/",
    "long": "-77.99",
    "name": "Culpeper",
    "state": {
      "name": "Virginia",
      "abbreviation": "VA"
    },
    "lat": "38.47"
  },
  {
    "url": "http://www.damascus.org/",
    "long": "-81.78",
    "name": "Damascus",
    "state": {
      "name": "Virginia",
      "abbreviation": "VA"
    },
    "lat": "36.63"
  },
  {
    "url": "http://www.danville-va.gov/",
    "long": "-79.39",
    "name": "Danville",
    "state": {
      "name": "Virginia",
      "abbreviation": "VA"
    },
    "lat": "36.58"
  },
  {
    "url": "http://www.daytonva.us/",
    "long": "-78.93",
    "name": "Dayton",
    "state": {
      "name": "Virginia",
      "abbreviation": "VA"
    },
    "lat": "38.41"
  },
  {
    "url": "http://www.dublintown.org/",
    "long": "-80.68",
    "name": "Dublin",
    "state": {
      "name": "Virginia",
      "abbreviation": "VA"
    },
    "lat": "37.1"
  },
  {
    "url": "http://www.ci.emporia.va.us/",
    "long": "-77.54",
    "name": "Emporia",
    "state": {
      "name": "Virginia",
      "abbreviation": "VA"
    },
    "lat": "36.68"
  },
  {
    "url": "http://www.fairfaxva.gov",
    "long": "-77.3",
    "name": "Fairfax",
    "state": {
      "name": "Virginia",
      "abbreviation": "VA"
    },
    "lat": "38.84"
  },
  {
    "url": "http://www.fallschurchva.gov/",
    "long": "-77.17",
    "name": "Falls Church",
    "state": {
      "name": "Virginia",
      "abbreviation": "VA"
    },
    "lat": "38.88"
  },
  {
    "url": "http://www.farmvilleva.com/",
    "long": "-78.39",
    "name": "Farmville",
    "state": {
      "name": "Virginia",
      "abbreviation": "VA"
    },
    "lat": "37.3"
  },
  {
    "url": "http://www.fredericksburgva.gov/",
    "long": "-77.46",
    "name": "Fredericksburg",
    "state": {
      "name": "Virginia",
      "abbreviation": "VA"
    },
    "lat": "38.3"
  },
  {
    "url": "http://www.ci.grottoes.va.us/",
    "long": "-78.82",
    "name": "Grottoes",
    "state": {
      "name": "Virginia",
      "abbreviation": "VA"
    },
    "lat": "38.26"
  },
  {
    "url": "http://www.hampton.va.us/",
    "long": "-76.34",
    "name": "Hampton",
    "state": {
      "name": "Virginia",
      "abbreviation": "VA"
    },
    "lat": "37.02"
  },
  {
    "url": "http://www.harrisonburgva.gov/",
    "long": "-78.86",
    "name": "Harrisonburg",
    "state": {
      "name": "Virginia",
      "abbreviation": "VA"
    },
    "lat": "38.44"
  },
  {
    "url": "http://www.herndon-va.gov/",
    "long": "-77.38",
    "name": "Herndon",
    "state": {
      "name": "Virginia",
      "abbreviation": "VA"
    },
    "lat": "38.96"
  },
  {
    "url": "http://www.hopewellva.gov/",
    "long": "-77.28",
    "name": "Hopewell",
    "state": {
      "name": "Virginia",
      "abbreviation": "VA"
    },
    "lat": "37.3"
  },
  {
    "url": "http://www.townoflacrosse.org/",
    "long": "-78.09",
    "name": "La Crosse",
    "state": {
      "name": "Virginia",
      "abbreviation": "VA"
    },
    "lat": "36.7"
  },
  {
    "url": "http://www.leesburgva.gov/",
    "long": "-77.56",
    "name": "Leesburg",
    "state": {
      "name": "Virginia",
      "abbreviation": "VA"
    },
    "lat": "39.11"
  },
  {
    "url": "http://www.ci.lexington.va.us/",
    "long": "-79.44",
    "name": "Lexington",
    "state": {
      "name": "Virginia",
      "abbreviation": "VA"
    },
    "lat": "37.78"
  },
  {
    "url": "http://louisatown.org/",
    "long": "-78",
    "name": "Louisa",
    "state": {
      "name": "Virginia",
      "abbreviation": "VA"
    },
    "lat": "38.02"
  },
  {
    "url": "http://www.townofluray.com/",
    "long": "-78.45",
    "name": "Luray",
    "state": {
      "name": "Virginia",
      "abbreviation": "VA"
    },
    "lat": "38.66"
  },
  {
    "url": "http://www.lynchburgva.gov/",
    "long": "-79.14",
    "name": "Lynchburg",
    "state": {
      "name": "Virginia",
      "abbreviation": "VA"
    },
    "lat": "37.41"
  },
  {
    "url": "http://www.manassascity.org/",
    "long": "-77.47",
    "name": "Manassas",
    "state": {
      "name": "Virginia",
      "abbreviation": "VA"
    },
    "lat": "38.75"
  },
  {
    "url": "http://www.cityofmanassaspark.us/",
    "long": "-77.46",
    "name": "Manassas Park",
    "state": {
      "name": "Virginia",
      "abbreviation": "VA"
    },
    "lat": "38.78"
  },
  {
    "url": "http://www.marionva.org/",
    "long": "-81.51",
    "name": "Marion",
    "state": {
      "name": "Virginia",
      "abbreviation": "VA"
    },
    "lat": "36.83"
  },
  {
    "url": "http://www.ci.martinsville.va.us/",
    "long": "-79.87",
    "name": "Martinsville",
    "state": {
      "name": "Virginia",
      "abbreviation": "VA"
    },
    "lat": "36.69"
  },
  {
    "url": "http://www.middleburg.org/",
    "long": "-77.73",
    "name": "Middleburg",
    "state": {
      "name": "Virginia",
      "abbreviation": "VA"
    },
    "lat": "38.96"
  },
  {
    "url": "http://mountjackson.com/",
    "long": "-78.64",
    "name": "Mount Jackson",
    "state": {
      "name": "Virginia",
      "abbreviation": "VA"
    },
    "lat": "38.74"
  },
  {
    "url": "http://www.newmarketvirginia.com/",
    "long": "-78.67",
    "name": "New Market",
    "state": {
      "name": "Virginia",
      "abbreviation": "VA"
    },
    "lat": "38.64"
  },
  {
    "url": "http://www.nngov.com/",
    "long": "-76.42",
    "name": "Newport News",
    "state": {
      "name": "Virginia",
      "abbreviation": "VA"
    },
    "lat": "36.97"
  },
  {
    "url": "http://www.norfolk.gov/",
    "long": "-76.28",
    "name": "Norfolk",
    "state": {
      "name": "Virginia",
      "abbreviation": "VA"
    },
    "lat": "36.84"
  },
  {
    "url": "http://www.nortonva.org/",
    "long": "-82.62",
    "name": "Norton",
    "state": {
      "name": "Virginia",
      "abbreviation": "VA"
    },
    "lat": "36.93"
  },
  {
    "url": "http://www.townoforangeva.org/",
    "long": "-78.11",
    "name": "Orange",
    "state": {
      "name": "Virginia",
      "abbreviation": "VA"
    },
    "lat": "38.24"
  },
  {
    "url": "http://www.pearisburg.org/",
    "long": "-80.73",
    "name": "Pearisburg",
    "state": {
      "name": "Virginia",
      "abbreviation": "VA"
    },
    "lat": "37.32"
  },
  {
    "url": "http://www.petersburg-va.org/",
    "long": "-77.4",
    "name": "Petersburg",
    "state": {
      "name": "Virginia",
      "abbreviation": "VA"
    },
    "lat": "37.22"
  },
  {
    "url": "http://www.ci.poquoson.va.us/",
    "long": "-76.34",
    "name": "Poquoson",
    "state": {
      "name": "Virginia",
      "abbreviation": "VA"
    },
    "lat": "37.12"
  },
  {
    "url": "http://www.portsmouthva.gov/",
    "long": "-76.29",
    "name": "Portsmouth",
    "state": {
      "name": "Virginia",
      "abbreviation": "VA"
    },
    "lat": "36.83"
  },
  {
    "url": "http://www.pulaskitown.org/",
    "long": "-80.77",
    "name": "Pulaski",
    "state": {
      "name": "Virginia",
      "abbreviation": "VA"
    },
    "lat": "37.04"
  },
  {
    "url": "http://www.purcellvilleva.com/",
    "long": "-77.71",
    "name": "Purcellville",
    "state": {
      "name": "Virginia",
      "abbreviation": "VA"
    },
    "lat": "39.13"
  },
  {
    "url": "http://www.radford.va.us/",
    "long": "-80.57",
    "name": "Radford",
    "state": {
      "name": "Virginia",
      "abbreviation": "VA"
    },
    "lat": "37.13"
  },
  {
    "url": "http://www.richmondgov.com/",
    "long": "-77.46",
    "name": "Richmond",
    "state": {
      "name": "Virginia",
      "abbreviation": "VA"
    },
    "lat": "37.55"
  },
  {
    "url": "http://www.roanokeva.gov/",
    "long": "-79.94",
    "name": "Roanoke",
    "state": {
      "name": "Virginia",
      "abbreviation": "VA"
    },
    "lat": "37.27"
  },
  {
    "url": "http://www.rockymountva.org/",
    "long": "-79.89",
    "name": "Rocky Mount",
    "state": {
      "name": "Virginia",
      "abbreviation": "VA"
    },
    "lat": "36.99"
  },
  {
    "url": "http://www.roundhillva.org/",
    "long": "-77.76",
    "name": "Round Hill",
    "state": {
      "name": "Virginia",
      "abbreviation": "VA"
    },
    "lat": "39.13"
  },
  {
    "url": "http://www.townofruralretreat.com/",
    "long": "-81.27",
    "name": "Rural Retreat",
    "state": {
      "name": "Virginia",
      "abbreviation": "VA"
    },
    "lat": "36.89"
  },
  {
    "url": "http://www.ci.salem.va.us/",
    "long": "-80.05",
    "name": "Salem",
    "state": {
      "name": "Virginia",
      "abbreviation": "VA"
    },
    "lat": "37.29"
  },
  {
    "url": "http://www.scottsville.org/",
    "long": "-78.49",
    "name": "Scottsville",
    "state": {
      "name": "Virginia",
      "abbreviation": "VA"
    },
    "lat": "37.79"
  },
  {
    "url": "http://www.townofshenandoah.com/",
    "long": "-78.62",
    "name": "Shenandoah",
    "state": {
      "name": "Virginia",
      "abbreviation": "VA"
    },
    "lat": "38.48"
  },
  {
    "url": "http://www.smithfieldva.gov/",
    "long": "-76.63",
    "name": "Smithfield",
    "state": {
      "name": "Virginia",
      "abbreviation": "VA"
    },
    "lat": "36.98"
  },
  {
    "url": "http://www.southboston.com/town/",
    "long": "-78.9",
    "name": "South Boston",
    "state": {
      "name": "Virginia",
      "abbreviation": "VA"
    },
    "lat": "36.69"
  },
  {
    "url": "http://www.southhillva.org/",
    "long": "-78.12",
    "name": "South Hill",
    "state": {
      "name": "Virginia",
      "abbreviation": "VA"
    },
    "lat": "36.72"
  },
  {
    "url": "http://www.staunton.va.us/",
    "long": "-79.07",
    "name": "Staunton",
    "state": {
      "name": "Virginia",
      "abbreviation": "VA"
    },
    "lat": "38.14"
  },
  {
    "url": "http://www.suffolk.va.us/",
    "long": "-76.58",
    "name": "Suffolk",
    "state": {
      "name": "Virginia",
      "abbreviation": "VA"
    },
    "lat": "36.72"
  },
  {
    "url": "http://www.townoftazewell.org/",
    "long": "-81.51",
    "name": "Tazewell",
    "state": {
      "name": "Virginia",
      "abbreviation": "VA"
    },
    "lat": "37.11"
  },
  {
    "url": "http://www.viennava.gov/",
    "long": "-77.26",
    "name": "Vienna",
    "state": {
      "name": "Virginia",
      "abbreviation": "VA"
    },
    "lat": "38.9"
  },
  {
    "url": "http://www.vintonva.gov/",
    "long": "-79.89",
    "name": "Vinton",
    "state": {
      "name": "Virginia",
      "abbreviation": "VA"
    },
    "lat": "37.28"
  },
  {
    "url": "http://www.vbgov.com/",
    "long": "-75.97",
    "name": "Virginia Beach",
    "state": {
      "name": "Virginia",
      "abbreviation": "VA"
    },
    "lat": "36.85"
  },
  {
    "url": "http://www.warrentonva.gov/",
    "long": "-77.79",
    "name": "Warrenton",
    "state": {
      "name": "Virginia",
      "abbreviation": "VA"
    },
    "lat": "38.71"
  },
  {
    "url": "http://www.waynesboro.va.us/",
    "long": "-78.88",
    "name": "Waynesboro",
    "state": {
      "name": "Virginia",
      "abbreviation": "VA"
    },
    "lat": "38.06"
  },
  {
    "url": "http://www.westpointvirginia.org/",
    "long": "-76.79",
    "name": "West Point",
    "state": {
      "name": "Virginia",
      "abbreviation": "VA"
    },
    "lat": "37.53"
  },
  {
    "url": "http://www.winchesterva.gov/",
    "long": "-78.16",
    "name": "Winchester",
    "state": {
      "name": "Virginia",
      "abbreviation": "VA"
    },
    "lat": "39.18"
  },
  {
    "url": "http://www.wytheville.org/",
    "long": "-81.08",
    "name": "Wytheville",
    "state": {
      "name": "Virginia",
      "abbreviation": "VA"
    },
    "lat": "36.94"
  },
  {
    "url": "http://www.abingdon.com/",
    "long": "-81.97",
    "name": "Abingdon",
    "state": {
      "name": "Virginia",
      "abbreviation": "VA"
    },
    "lat": "36.7"
  },
  {
    "url": "http://alexandriava.gov/",
    "long": "-77.04",
    "name": "Alexandria",
    "state": {
      "name": "Virginia",
      "abbreviation": "VA"
    },
    "lat": "38.8"
  },
  {
    "url": "http://www.nortonva.org/",
    "long": "-82.62",
    "name": "Norton",
    "state": {
      "name": "Virginia",
      "abbreviation": "VA"
    },
    "lat": "36.93"
  },
  {
    "url": "http://www.scottsville.org/",
    "long": "-78.49",
    "name": "Scottsville",
    "state": {
      "name": "Virginia",
      "abbreviation": "VA"
    },
    "lat": "37.79"
  }
]