[
  {
    "url": "http://www.ci.moscow.id.us/",
    "long": "-117",
    "name": "Moscow",
    "state": {
      "name": "Idaho",
      "abbreviation": "ID"
    },
    "lat": "46.73"
  },
  {
    "url": "http://www.mountain-home.us/",
    "long": "-115.69",
    "name": "Mountain Home",
    "state": {
      "name": "Idaho",
      "abbreviation": "ID"
    },
    "lat": "43.13"
  },
  {
    "url": "http://www.ci.nampa.id.us/",
    "long": "-116.56",
    "name": "Nampa",
    "state": {
      "name": "Idaho",
      "abbreviation": "ID"
    },
    "lat": "43.54"
  },
  {
    "url": "http://www.newmeadowsidaho.org/",
    "long": "-116.28",
    "name": "New Meadows",
    "state": {
      "name": "Idaho",
      "abbreviation": "ID"
    },
    "lat": "44.97"
  },
  {
    "url": "http://myweb.cableone.net/cnp/",
    "long": "-116.81",
    "name": "New Plymouth",
    "state": {
      "name": "Idaho",
      "abbreviation": "ID"
    },
    "lat": "43.96"
  },
  {
    "url": "http://payette.govoffice.com/",
    "long": "-116.93",
    "name": "Payette",
    "state": {
      "name": "Idaho",
      "abbreviation": "ID"
    },
    "lat": "44.07"
  },
  {
    "url": "http://www.postfallsidaho.org/",
    "long": "-116.95",
    "name": "Post Falls",
    "state": {
      "name": "Idaho",
      "abbreviation": "ID"
    },
    "lat": "47.71"
  },
  {
    "url": "http://www.priestriver-id.gov/",
    "long": "-116.9",
    "name": "Priest River",
    "state": {
      "name": "Idaho",
      "abbreviation": "ID"
    },
    "lat": "48.18"
  },
  {
    "url": "http://www.rathdrum.org/",
    "long": "-116.89",
    "name": "Rathdrum",
    "state": {
      "name": "Idaho",
      "abbreviation": "ID"
    },
    "lat": "47.81"
  },
  {
    "url": "http://www.rexburg.org/",
    "long": "-111.78",
    "name": "Rexburg",
    "state": {
      "name": "Idaho",
      "abbreviation": "ID"
    },
    "lat": "43.82"
  },
  {
    "url": "http://rigby.govoffice.com/",
    "long": "-111.91",
    "name": "Rigby",
    "state": {
      "name": "Idaho",
      "abbreviation": "ID"
    },
    "lat": "43.67"
  },
  {
    "url": "http://www.rupert-idaho.com/",
    "long": "-113.67",
    "name": "Rupert",
    "state": {
      "name": "Idaho",
      "abbreviation": "ID"
    },
    "lat": "42.61"
  },
  {
    "url": "http://www.cityofstanthony.org/",
    "long": "-111.68",
    "name": "Saint Anthony",
    "state": {
      "name": "Idaho",
      "abbreviation": "ID"
    },
    "lat": "43.96"
  },
  {
    "url": "http://www.cityofsalmon.com/",
    "long": "-113.89",
    "name": "Salmon",
    "state": {
      "name": "Idaho",
      "abbreviation": "ID"
    },
    "lat": "45.17"
  },
  {
    "url": "http://www.cityofsandpoint.com/",
    "long": "-116.55",
    "name": "Sandpoint",
    "state": {
      "name": "Idaho",
      "abbreviation": "ID"
    },
    "lat": "48.27"
  },
  {
    "url": "http://www.ci.shelley.id.us/",
    "long": "-112.12",
    "name": "Shelley",
    "state": {
      "name": "Idaho",
      "abbreviation": "ID"
    },
    "lat": "43.38"
  },
  {
    "url": "http://www.sodaspringsid.com/",
    "long": "-111.6",
    "name": "Soda Springs",
    "state": {
      "name": "Idaho",
      "abbreviation": "ID"
    },
    "lat": "42.65"
  },
  {
    "url": "http://www.staridaho.org/",
    "long": "-116.49",
    "name": "Star",
    "state": {
      "name": "Idaho",
      "abbreviation": "ID"
    },
    "lat": "43.69"
  },
  {
    "url": "http://www.sunvalley.govoffice.com/",
    "long": "-114.35",
    "name": "Sun Valley",
    "state": {
      "name": "Idaho",
      "abbreviation": "ID"
    },
    "lat": "43.69"
  },
  {
    "url": "http://www.tfid.org/",
    "long": "-114.46",
    "name": "Twin Falls",
    "state": {
      "name": "Idaho",
      "abbreviation": "ID"
    },
    "lat": "42.56"
  },
  {
    "url": "http://www.ci.ammon.id.us/",
    "long": "-111.96",
    "name": "Ammon",
    "state": {
      "name": "Idaho",
      "abbreviation": "ID"
    },
    "lat": "43.46"
  },
  {
    "url": "http://www.cityofashton.com/",
    "long": "-111.44",
    "name": "Ashton",
    "state": {
      "name": "Idaho",
      "abbreviation": "ID"
    },
    "lat": "44.07"
  },
  {
    "url": "http://www.cityofboise.org/",
    "long": "-116.2",
    "name": "Boise",
    "state": {
      "name": "Idaho",
      "abbreviation": "ID"
    },
    "lat": "43.61"
  },
  {
    "url": "http://www.burleyidaho.org/",
    "long": "-113.79",
    "name": "Burley",
    "state": {
      "name": "Idaho",
      "abbreviation": "ID"
    },
    "lat": "42.53"
  },
  {
    "url": "http://city.cityofcaldwell.com/",
    "long": "-116.68",
    "name": "Caldwell",
    "state": {
      "name": "Idaho",
      "abbreviation": "ID"
    },
    "lat": "43.66"
  },
  {
    "url": "http://www.cityofcarey.com/",
    "long": "-113.94",
    "name": "Carey",
    "state": {
      "name": "Idaho",
      "abbreviation": "ID"
    },
    "lat": "43.3"
  },
  {
    "url": "http://www.cdaid.org/",
    "long": "-116.78",
    "name": "Coeur d'Alene",
    "state": {
      "name": "Idaho",
      "abbreviation": "ID"
    },
    "lat": "47.67"
  },
  {
    "url": "http://www.dietrichidaho.com/",
    "long": "-114.26",
    "name": "Dietrich",
    "state": {
      "name": "Idaho",
      "abbreviation": "ID"
    },
    "lat": "42.9"
  },
  {
    "url": "http://driggs.govoffice.com/",
    "long": "-111.11",
    "name": "Driggs",
    "state": {
      "name": "Idaho",
      "abbreviation": "ID"
    },
    "lat": "43.72"
  },
  {
    "url": "http://www.cityofeagle.com/",
    "long": "-116.35",
    "name": "Eagle",
    "state": {
      "name": "Idaho",
      "abbreviation": "ID"
    },
    "lat": "43.69"
  },
  {
    "url": "http://franklinidaho.org/",
    "long": "-111.8",
    "name": "Franklin",
    "state": {
      "name": "Idaho",
      "abbreviation": "ID"
    },
    "lat": "42.01"
  },
  {
    "url": "http://www.fruitland.org/",
    "long": "-116.91",
    "name": "Fruitland",
    "state": {
      "name": "Idaho",
      "abbreviation": "ID"
    },
    "lat": "44"
  },
  {
    "url": "http://www.gardencityidaho.govoffice.com/",
    "long": "-116.23",
    "name": "Garden City",
    "state": {
      "name": "Idaho",
      "abbreviation": "ID"
    },
    "lat": "43.62"
  },
  {
    "url": "http://www.haileycityhall.org/",
    "long": "-114.31",
    "name": "Hailey",
    "state": {
      "name": "Idaho",
      "abbreviation": "ID"
    },
    "lat": "43.51"
  },
  {
    "url": "http://www.cityofhauser.org/",
    "long": "-117.02",
    "name": "Hauser",
    "state": {
      "name": "Idaho",
      "abbreviation": "ID"
    },
    "lat": "47.77"
  },
  {
    "url": "http://www.hayden.govoffice.com/",
    "long": "-116.78",
    "name": "Hayden",
    "state": {
      "name": "Idaho",
      "abbreviation": "ID"
    },
    "lat": "47.76"
  },
  {
    "url": "http://www.cityofhomedale.com/",
    "long": "-116.93",
    "name": "Homedale",
    "state": {
      "name": "Idaho",
      "abbreviation": "ID"
    },
    "lat": "43.61"
  },
  {
    "url": "http://www.idahofallsidaho.gov/",
    "long": "-112.03",
    "name": "Idaho Falls",
    "state": {
      "name": "Idaho",
      "abbreviation": "ID"
    },
    "lat": "43.46"
  },
  {
    "url": "http://www.ci.jerome.id.us/",
    "long": "-114.51",
    "name": "Jerome",
    "state": {
      "name": "Idaho",
      "abbreviation": "ID"
    },
    "lat": "42.72"
  },
  {
    "url": "http://www.cityofkellogg.com/",
    "long": "-116.11",
    "name": "Kellogg",
    "state": {
      "name": "Idaho",
      "abbreviation": "ID"
    },
    "lat": "47.53"
  },
  {
    "url": "http://www.ketchumidaho.org/",
    "long": "-114.36",
    "name": "Ketchum",
    "state": {
      "name": "Idaho",
      "abbreviation": "ID"
    },
    "lat": "43.68"
  },
  {
    "url": "http://www.cityofkimberly.org/",
    "long": "-114.36",
    "name": "Kimberly",
    "state": {
      "name": "Idaho",
      "abbreviation": "ID"
    },
    "lat": "42.53"
  },
  {
    "url": "http://www.cityofkuna.com/",
    "long": "-116.42",
    "name": "Kuna",
    "state": {
      "name": "Idaho",
      "abbreviation": "ID"
    },
    "lat": "43.49"
  },
  {
    "url": "http://www.cityoflewiston.org/",
    "long": "-117.01",
    "name": "Lewiston",
    "state": {
      "name": "Idaho",
      "abbreviation": "ID"
    },
    "lat": "46.41"
  },
  {
    "url": "http://www.mccall.id.us/",
    "long": "-116.09",
    "name": "McCall",
    "state": {
      "name": "Idaho",
      "abbreviation": "ID"
    },
    "lat": "44.91"
  },
  {
    "url": "http://www.nethelp.org/melba/",
    "long": "-116.52",
    "name": "Melba",
    "state": {
      "name": "Idaho",
      "abbreviation": "ID"
    },
    "lat": "43.37"
  },
  {
    "url": "http://www.meridiancity.org/",
    "long": "-116.39",
    "name": "Meridian",
    "state": {
      "name": "Idaho",
      "abbreviation": "ID"
    },
    "lat": "43.61"
  },
  {
    "url": "http://www.middleton.id.gov/",
    "long": "-116.62",
    "name": "Middleton",
    "state": {
      "name": "Idaho",
      "abbreviation": "ID"
    },
    "lat": "43.7"
  },
  {
    "url": "http://www.montpelieridaho.info/",
    "long": "-111.29",
    "name": "Montpelier",
    "state": {
      "name": "Idaho",
      "abbreviation": "ID"
    },
    "lat": "42.32"
  }
]