[
  {
    "url": "http://www.ci.arlington.wa.us/",
    "long": "-122.12",
    "name": "Arlington",
    "state": {
      "name": "Washington",
      "abbreviation": "WA"
    },
    "lat": "48.19"
  },
  {
    "url": "http://www.washougal.biz/",
    "long": "-122.35",
    "name": "Washougal",
    "state": {
      "name": "Washington",
      "abbreviation": "WA"
    },
    "lat": "45.58"
  },
  {
    "url": "http://www.ci.auburn.wa.us/",
    "long": "-122.22",
    "name": "Auburn",
    "state": {
      "name": "Washington",
      "abbreviation": "WA"
    },
    "lat": "47.3"
  },
  {
    "url": "http://www.ci.waterville.wa.us/",
    "long": "-120.07",
    "name": "Waterville",
    "state": {
      "name": "Washington",
      "abbreviation": "WA"
    },
    "lat": "47.64"
  },
  {
    "url": "http://www.cityofbg.org/",
    "long": "-122.53",
    "name": "Battle Ground",
    "state": {
      "name": "Washington",
      "abbreviation": "WA"
    },
    "lat": "45.78"
  },
  {
    "url": "http://www.wenatcheewa.gov/",
    "long": "-120.31",
    "name": "Wenatchee",
    "state": {
      "name": "Washington",
      "abbreviation": "WA"
    },
    "lat": "47.42"
  },
  {
    "url": "http://www.beauxarts-wa.gov/",
    "long": "-122.19",
    "name": "Beaux Arts Village",
    "state": {
      "name": "Washington",
      "abbreviation": "WA"
    },
    "lat": "47.58"
  },
  {
    "url": "http://www.ci.bellevue.wa.us/",
    "long": "-122.2",
    "name": "Bellevue",
    "state": {
      "name": "Washington",
      "abbreviation": "WA"
    },
    "lat": "47.61"
  },
  {
    "url": "http://ci.westport.wa.us/",
    "long": "-124.1",
    "name": "Westport",
    "state": {
      "name": "Washington",
      "abbreviation": "WA"
    },
    "lat": "46.89"
  },
  {
    "url": "http://www.cob.org/",
    "long": "-122.48",
    "name": "Bellingham",
    "state": {
      "name": "Washington",
      "abbreviation": "WA"
    },
    "lat": "48.75"
  },
  {
    "url": "http://ci.benton-city.wa.us/",
    "long": "-119.48",
    "name": "Benton City",
    "state": {
      "name": "Washington",
      "abbreviation": "WA"
    },
    "lat": "46.26"
  },
  {
    "url": "http://www.wilburwa.com/",
    "long": "-118.7",
    "name": "Wilbur",
    "state": {
      "name": "Washington",
      "abbreviation": "WA"
    },
    "lat": "47.75"
  },
  {
    "url": "http://www.bingenwashington.org/",
    "long": "-121.46",
    "name": "Bingen",
    "state": {
      "name": "Washington",
      "abbreviation": "WA"
    },
    "lat": "45.71"
  },
  {
    "url": "http://www.ci.blaine.wa.us/",
    "long": "-122.74",
    "name": "Blaine",
    "state": {
      "name": "Washington",
      "abbreviation": "WA"
    },
    "lat": "48.99"
  },
  {
    "url": "http://www.citybonneylake.org/",
    "long": "-122.18",
    "name": "Bonney Lake",
    "state": {
      "name": "Washington",
      "abbreviation": "WA"
    },
    "lat": "47.17"
  },
  {
    "url": "http://www.ci.bothell.wa.us/",
    "long": "-122.2",
    "name": "Bothell",
    "state": {
      "name": "Washington",
      "abbreviation": "WA"
    },
    "lat": "47.76"
  },
  {
    "url": "http://www.ci.woodinville.wa.us/",
    "long": "-122.16",
    "name": "Woodinville",
    "state": {
      "name": "Washington",
      "abbreviation": "WA"
    },
    "lat": "47.75"
  },
  {
    "url": "http://www.ci.bremerton.wa.us/",
    "long": "-122.63",
    "name": "Bremerton",
    "state": {
      "name": "Washington",
      "abbreviation": "WA"
    },
    "lat": "47.56"
  },
  {
    "url": "http://www.ci.woodland.wa.us/",
    "long": "-122.74",
    "name": "Woodland",
    "state": {
      "name": "Washington",
      "abbreviation": "WA"
    },
    "lat": "45.9"
  },
  {
    "url": "http://www.ci.brier.wa.us/",
    "long": "-122.27",
    "name": "Brier",
    "state": {
      "name": "Washington",
      "abbreviation": "WA"
    },
    "lat": "47.78"
  },
  {
    "url": "http://www.ci.yakima.wa.us/",
    "long": "-120.5",
    "name": "Yakima",
    "state": {
      "name": "Washington",
      "abbreviation": "WA"
    },
    "lat": "46.6"
  },
  {
    "url": "http://www.ci.yarrow-point.wa.us/",
    "long": "-122.21",
    "name": "Yarrow Point",
    "state": {
      "name": "Washington",
      "abbreviation": "WA"
    },
    "lat": "47.64"
  },
  {
    "url": "http://www.burienwa.gov/",
    "long": "-122.34",
    "name": "Burien",
    "state": {
      "name": "Washington",
      "abbreviation": "WA"
    },
    "lat": "47.47"
  },
  {
    "url": "http://www.ci.burlington.wa.us/",
    "long": "-122.32",
    "name": "Burlington",
    "state": {
      "name": "Washington",
      "abbreviation": "WA"
    },
    "lat": "48.47"
  },
  {
    "url": "http://www.ci.camas.wa.us/",
    "long": "-122.39",
    "name": "Camas",
    "state": {
      "name": "Washington",
      "abbreviation": "WA"
    },
    "lat": "45.58"
  },
  {
    "url": "http://www.ci.carnation.wa.us/",
    "long": "-121.91",
    "name": "Carnation",
    "state": {
      "name": "Washington",
      "abbreviation": "WA"
    },
    "lat": "47.64"
  },
  {
    "url": "http://www.cityofcashmere.org/",
    "long": "-120.46",
    "name": "Cashmere",
    "state": {
      "name": "Washington",
      "abbreviation": "WA"
    },
    "lat": "47.52"
  },
  {
    "url": "http://ci.castle-rock.wa.us/",
    "long": "-122.9",
    "name": "Castle Rock",
    "state": {
      "name": "Washington",
      "abbreviation": "WA"
    },
    "lat": "46.27"
  },
  {
    "url": "http://www.cityofcentralia.com/",
    "long": "-122.95",
    "name": "Centralia",
    "state": {
      "name": "Washington",
      "abbreviation": "WA"
    },
    "lat": "46.71"
  },
  {
    "url": "http://www.cityofchelan.com/",
    "long": "-120.01",
    "name": "Chelan",
    "state": {
      "name": "Washington",
      "abbreviation": "WA"
    },
    "lat": "47.84"
  },
  {
    "url": "http://www.cityofcheney.org/",
    "long": "-117.57",
    "name": "Cheney",
    "state": {
      "name": "Washington",
      "abbreviation": "WA"
    },
    "lat": "47.48"
  },
  {
    "url": "http://www.clydehill.org/",
    "long": "-122.21",
    "name": "Clyde Hill",
    "state": {
      "name": "Washington",
      "abbreviation": "WA"
    },
    "lat": "47.63"
  },
  {
    "url": "http://www.ci.colfax.wa.us/",
    "long": "-117.36",
    "name": "Colfax",
    "state": {
      "name": "Washington",
      "abbreviation": "WA"
    },
    "lat": "46.88"
  },
  {
    "url": "http://ci.college-place.wa.us/",
    "long": "-118.38",
    "name": "College Place",
    "state": {
      "name": "Washington",
      "abbreviation": "WA"
    },
    "lat": "46.04"
  },
  {
    "url": "http://www.townofconcrete.com/",
    "long": "-121.74",
    "name": "Concrete",
    "state": {
      "name": "Washington",
      "abbreviation": "WA"
    },
    "lat": "48.53"
  },
  {
    "url": "http://www.cityofconnell.com/",
    "long": "-118.86",
    "name": "Connell",
    "state": {
      "name": "Washington",
      "abbreviation": "WA"
    },
    "lat": "46.66"
  },
  {
    "url": "http://www.ci.covington.wa.us/",
    "long": "-122.11",
    "name": "Covington",
    "state": {
      "name": "Washington",
      "abbreviation": "WA"
    },
    "lat": "47.34"
  },
  {
    "url": "http://www.daytonwa.com/",
    "long": "-117.97",
    "name": "Dayton",
    "state": {
      "name": "Washington",
      "abbreviation": "WA"
    },
    "lat": "46.32"
  },
  {
    "url": "http://www.desmoineswa.gov/",
    "long": "-122.32",
    "name": "Des Moines",
    "state": {
      "name": "Washington",
      "abbreviation": "WA"
    },
    "lat": "47.4"
  },
  {
    "url": "http://www.ci.dupont.wa.us/",
    "long": "-122.63",
    "name": "DuPont",
    "state": {
      "name": "Washington",
      "abbreviation": "WA"
    },
    "lat": "47.09"
  },
  {
    "url": "http://www.duvallwa.gov/",
    "long": "-121.98",
    "name": "Duvall",
    "state": {
      "name": "Washington",
      "abbreviation": "WA"
    },
    "lat": "47.74"
  },
  {
    "url": "http://www.east-wenatchee.com/",
    "long": "-120.29",
    "name": "East Wenatchee",
    "state": {
      "name": "Washington",
      "abbreviation": "WA"
    },
    "lat": "47.41"
  },
  {
    "url": "http://www.cityofedgewood.org/",
    "long": "-122.29",
    "name": "Edgewood",
    "state": {
      "name": "Washington",
      "abbreviation": "WA"
    },
    "lat": "47.25"
  },
  {
    "url": "http://www.ci.edmonds.wa.us/",
    "long": "-122.37",
    "name": "Edmonds",
    "state": {
      "name": "Washington",
      "abbreviation": "WA"
    },
    "lat": "47.81"
  },
  {
    "url": "http://www.ci.ellensburg.wa.us/",
    "long": "-120.54",
    "name": "Ellensburg",
    "state": {
      "name": "Washington",
      "abbreviation": "WA"
    },
    "lat": "46.99"
  },
  {
    "url": "http://www.ci.enumclaw.wa.us/",
    "long": "-121.99",
    "name": "Enumclaw",
    "state": {
      "name": "Washington",
      "abbreviation": "WA"
    },
    "lat": "47.2"
  },
  {
    "url": "http://www.ephrata.org/",
    "long": "-119.55",
    "name": "Ephrata",
    "state": {
      "name": "Washington",
      "abbreviation": "WA"
    },
    "lat": "47.31"
  },
  {
    "url": "http://www.ci.everett.wa.us/",
    "long": "-122.2",
    "name": "Everett",
    "state": {
      "name": "Washington",
      "abbreviation": "WA"
    },
    "lat": "47.97"
  },
  {
    "url": "http://www.cityoffederalway.com/",
    "long": "-122.31",
    "name": "Federal Way",
    "state": {
      "name": "Washington",
      "abbreviation": "WA"
    },
    "lat": "47.32"
  },
  {
    "url": "http://www.ci.ferndale.wa.us/",
    "long": "-122.59",
    "name": "Ferndale",
    "state": {
      "name": "Washington",
      "abbreviation": "WA"
    },
    "lat": "48.84"
  },
  {
    "url": "http://www.cityoffife.org/",
    "long": "-122.35",
    "name": "Fife",
    "state": {
      "name": "Washington",
      "abbreviation": "WA"
    },
    "lat": "47.23"
  },
  {
    "url": "http://www.forkswashington.org/",
    "long": "-124.38",
    "name": "Forks",
    "state": {
      "name": "Washington",
      "abbreviation": "WA"
    },
    "lat": "47.95"
  },
  {
    "url": "http://www.fridayharbor.org/",
    "long": "-123.01",
    "name": "Friday Harbor",
    "state": {
      "name": "Washington",
      "abbreviation": "WA"
    },
    "lat": "48.53"
  },
  {
    "url": "http://www.ci.george.wa.us/",
    "long": "-119.85",
    "name": "George",
    "state": {
      "name": "Washington",
      "abbreviation": "WA"
    },
    "lat": "47.07"
  },
  {
    "url": "http://www.cityofgigharbor.net/",
    "long": "-122.58",
    "name": "Gig Harbor",
    "state": {
      "name": "Washington",
      "abbreviation": "WA"
    },
    "lat": "47.32"
  },
  {
    "url": "http://www.grandview.wa.us/",
    "long": "-119.9",
    "name": "Grandview",
    "state": {
      "name": "Washington",
      "abbreviation": "WA"
    },
    "lat": "46.25"
  },
  {
    "url": "http://www.cityofhoquiam.com/",
    "long": "-123.88",
    "name": "Hoquiam",
    "state": {
      "name": "Washington",
      "abbreviation": "WA"
    },
    "lat": "46.98"
  },
  {
    "url": "http://www.ilwacowashington.com/",
    "long": "-124.04",
    "name": "Ilwaco",
    "state": {
      "name": "Washington",
      "abbreviation": "WA"
    },
    "lat": "46.3"
  },
  {
    "url": "http://www.ci.issaquah.wa.us/",
    "long": "-122.03",
    "name": "Issaquah",
    "state": {
      "name": "Washington",
      "abbreviation": "WA"
    },
    "lat": "47.53"
  },
  {
    "url": "http://www.cityofkalama.com/",
    "long": "-122.84",
    "name": "Kalama",
    "state": {
      "name": "Washington",
      "abbreviation": "WA"
    },
    "lat": "46"
  },
  {
    "url": "http://www.kelso.gov/",
    "long": "-122.9",
    "name": "Kelso",
    "state": {
      "name": "Washington",
      "abbreviation": "WA"
    },
    "lat": "46.14"
  },
  {
    "url": "http://www.cityofkenmore.com/",
    "long": "-122.24",
    "name": "Kenmore",
    "state": {
      "name": "Washington",
      "abbreviation": "WA"
    },
    "lat": "47.75"
  },
  {
    "url": "http://www.ci.kennewick.wa.us/",
    "long": "-119.13",
    "name": "Kennewick",
    "state": {
      "name": "Washington",
      "abbreviation": "WA"
    },
    "lat": "46.21"
  },
  {
    "url": "http://www.ci.kent.wa.us/",
    "long": "-122.23",
    "name": "Kent",
    "state": {
      "name": "Washington",
      "abbreviation": "WA"
    },
    "lat": "47.38"
  },
  {
    "url": "http://www.ci.kirkland.wa.us/",
    "long": "-122.2",
    "name": "Kirkland",
    "state": {
      "name": "Washington",
      "abbreviation": "WA"
    },
    "lat": "47.68"
  },
  {
    "url": "http://www.lacenterwa.com/",
    "long": "-122.67",
    "name": "La Center",
    "state": {
      "name": "Washington",
      "abbreviation": "WA"
    },
    "lat": "45.86"
  },
  {
    "url": "http://www.laconner.net/",
    "long": "-122.49",
    "name": "La Conner",
    "state": {
      "name": "Washington",
      "abbreviation": "WA"
    },
    "lat": "48.38"
  },
  {
    "url": "http://www.ci.lacey.wa.us/",
    "long": "-122.82",
    "name": "Lacey",
    "state": {
      "name": "Washington",
      "abbreviation": "WA"
    },
    "lat": "47.03"
  },
  {
    "url": "http://www.cityoflfp.com/",
    "long": "-122.28",
    "name": "Lake Forest Park",
    "state": {
      "name": "Washington",
      "abbreviation": "WA"
    },
    "lat": "47.75"
  },
  {
    "url": "http://www.ci.lake-stevens.wa.us/",
    "long": "-122.06",
    "name": "Lake Stevens",
    "state": {
      "name": "Washington",
      "abbreviation": "WA"
    },
    "lat": "48.01"
  },
  {
    "url": "http://www.cityoflakewood.us/",
    "long": "-122.51",
    "name": "Lakewood",
    "state": {
      "name": "Washington",
      "abbreviation": "WA"
    },
    "lat": "47.17"
  },
  {
    "url": "http://www.mylongview.com/",
    "long": "-122.93",
    "name": "Longview",
    "state": {
      "name": "Washington",
      "abbreviation": "WA"
    },
    "lat": "46.13"
  },
  {
    "url": "http://www.lyndenwa.org/",
    "long": "-122.45",
    "name": "Lynden",
    "state": {
      "name": "Washington",
      "abbreviation": "WA"
    },
    "lat": "48.94"
  },
  {
    "url": "http://www.ci.lynnwood.wa.us/",
    "long": "-122.31",
    "name": "Lynnwood",
    "state": {
      "name": "Washington",
      "abbreviation": "WA"
    },
    "lat": "47.82"
  },
  {
    "url": "http://www.ci.maple-valley.wa.us/",
    "long": "-122.03",
    "name": "Maple Valley",
    "state": {
      "name": "Washington",
      "abbreviation": "WA"
    },
    "lat": "47.4"
  },
  {
    "url": "http://ci.marysville.wa.us/",
    "long": "-122.17",
    "name": "Marysville",
    "state": {
      "name": "Washington",
      "abbreviation": "WA"
    },
    "lat": "48.05"
  },
  {
    "url": "http://www.medical-lake.org/",
    "long": "-117.68",
    "name": "Medical Lake",
    "state": {
      "name": "Washington",
      "abbreviation": "WA"
    },
    "lat": "47.57"
  },
  {
    "url": "http://www.medina-wa.gov/",
    "long": "-122.22",
    "name": "Medina",
    "state": {
      "name": "Washington",
      "abbreviation": "WA"
    },
    "lat": "47.62"
  },
  {
    "url": "http://www.mercergov.org/",
    "long": "-122.22",
    "name": "Mercer Island",
    "state": {
      "name": "Washington",
      "abbreviation": "WA"
    },
    "lat": "47.57"
  },
  {
    "url": "http://www.cityofmillcreek.com/",
    "long": "-122.2",
    "name": "Mill Creek",
    "state": {
      "name": "Washington",
      "abbreviation": "WA"
    },
    "lat": "47.86"
  },
  {
    "url": "http://www.cityofmilton.net/",
    "long": "-122.31",
    "name": "Milton",
    "state": {
      "name": "Washington",
      "abbreviation": "WA"
    },
    "lat": "47.24"
  },
  {
    "url": "http://www.ci.monroe.wa.us/",
    "long": "-121.97",
    "name": "Monroe",
    "state": {
      "name": "Washington",
      "abbreviation": "WA"
    },
    "lat": "47.85"
  },
  {
    "url": "http://www.montesano.us/",
    "long": "-123.6",
    "name": "Montesano",
    "state": {
      "name": "Washington",
      "abbreviation": "WA"
    },
    "lat": "46.98"
  },
  {
    "url": "http://www.ci.mount-vernon.wa.us/",
    "long": "-122.33",
    "name": "Mount Vernon",
    "state": {
      "name": "Washington",
      "abbreviation": "WA"
    },
    "lat": "48.42"
  },
  {
    "url": "http://www.ci.mountlake-terrace.wa.us/",
    "long": "-122.3",
    "name": "Mountlake Terrace",
    "state": {
      "name": "Washington",
      "abbreviation": "WA"
    },
    "lat": "47.78"
  },
  {
    "url": "http://www.ci.mukilteo.wa.us/",
    "long": "-122.3",
    "name": "Mukilteo",
    "state": {
      "name": "Washington",
      "abbreviation": "WA"
    },
    "lat": "47.94"
  },
  {
    "url": "http://www.ci.newcastle.wa.us/",
    "long": "-122.15",
    "name": "Newcastle",
    "state": {
      "name": "Washington",
      "abbreviation": "WA"
    },
    "lat": "47.53"
  },
  {
    "url": "http://www.newport-wa.org/",
    "long": "-117.04",
    "name": "Newport",
    "state": {
      "name": "Washington",
      "abbreviation": "WA"
    },
    "lat": "48.17"
  },
  {
    "url": "http://www.ci.normandy-park.wa.us/",
    "long": "-122.34",
    "name": "Normandy Park",
    "state": {
      "name": "Washington",
      "abbreviation": "WA"
    },
    "lat": "47.43"
  },
  {
    "url": "http://ci.north-bend.wa.us/",
    "long": "-121.78",
    "name": "North Bend",
    "state": {
      "name": "Washington",
      "abbreviation": "WA"
    },
    "lat": "47.49"
  },
  {
    "url": "http://www.oakharbor.org/",
    "long": "-122.64",
    "name": "Oak Harbor",
    "state": {
      "name": "Washington",
      "abbreviation": "WA"
    },
    "lat": "48.29"
  },
  {
    "url": "http://www.osgov.com/",
    "long": "-124.15",
    "name": "Ocean Shores",
    "state": {
      "name": "Washington",
      "abbreviation": "WA"
    },
    "lat": "46.97"
  },
  {
    "url": "http://olympiawa.gov/",
    "long": "-122.9",
    "name": "Olympia",
    "state": {
      "name": "Washington",
      "abbreviation": "WA"
    },
    "lat": "47.03"
  },
  {
    "url": "http://ci.pacific.wa.us/",
    "long": "-122.25",
    "name": "Pacific",
    "state": {
      "name": "Washington",
      "abbreviation": "WA"
    },
    "lat": "47.26"
  },
  {
    "url": "http://www.ci.pasco.wa.us/",
    "long": "-119.1",
    "name": "Pasco",
    "state": {
      "name": "Washington",
      "abbreviation": "WA"
    },
    "lat": "46.23"
  },
  {
    "url": "http://ci.port-angeles.wa.us/",
    "long": "-123.43",
    "name": "Port Angeles",
    "state": {
      "name": "Washington",
      "abbreviation": "WA"
    },
    "lat": "48.11"
  },
  {
    "url": "http://www.cityofpt.us/",
    "long": "-122.76",
    "name": "Port Townsend",
    "state": {
      "name": "Washington",
      "abbreviation": "WA"
    },
    "lat": "48.11"
  },
  {
    "url": "http://www.cityofpoulsbo.com/",
    "long": "-122.64",
    "name": "Poulsbo",
    "state": {
      "name": "Washington",
      "abbreviation": "WA"
    },
    "lat": "47.73"
  },
  {
    "url": "http://www.ci.pullman.wa.us/",
    "long": "-117.17",
    "name": "Pullman",
    "state": {
      "name": "Washington",
      "abbreviation": "WA"
    },
    "lat": "46.73"
  },
  {
    "url": "http://www.cityofpuyallup.org/",
    "long": "-122.29",
    "name": "Puyallup",
    "state": {
      "name": "Washington",
      "abbreviation": "WA"
    },
    "lat": "47.18"
  },
  {
    "url": "http://www.redmond.gov/",
    "long": "-122.12",
    "name": "Redmond",
    "state": {
      "name": "Washington",
      "abbreviation": "WA"
    },
    "lat": "47.67"
  },
  {
    "url": "http://www.rentonwa.gov/",
    "long": "-122.21",
    "name": "Renton",
    "state": {
      "name": "Washington",
      "abbreviation": "WA"
    },
    "lat": "47.48"
  },
  {
    "url": "http://www.ci.richland.wa.us/",
    "long": "-119.28",
    "name": "Richland",
    "state": {
      "name": "Washington",
      "abbreviation": "WA"
    },
    "lat": "46.28"
  },
  {
    "url": "http://www.ci.sammamish.wa.us/",
    "long": "-122.08",
    "name": "Sammamish",
    "state": {
      "name": "Washington",
      "abbreviation": "WA"
    },
    "lat": "47.64"
  },
  {
    "url": "http://seattle.gov/",
    "long": "-122.33",
    "name": "Seattle",
    "state": {
      "name": "Washington",
      "abbreviation": "WA"
    },
    "lat": "47.6"
  },
  {
    "url": "http://www.ci.sedro-woolley.wa.us/",
    "long": "-122.23",
    "name": "Sedro-Woolley",
    "state": {
      "name": "Washington",
      "abbreviation": "WA"
    },
    "lat": "48.5"
  },
  {
    "url": "http://www.ci.selah.wa.us/",
    "long": "-120.53",
    "name": "Selah",
    "state": {
      "name": "Washington",
      "abbreviation": "WA"
    },
    "lat": "46.65"
  },
  {
    "url": "http://www.ci.sequim.wa.us/",
    "long": "-123.1",
    "name": "Sequim",
    "state": {
      "name": "Washington",
      "abbreviation": "WA"
    },
    "lat": "48.07"
  },
  {
    "url": "http://www.ci.shelton.wa.us/",
    "long": "-123.1",
    "name": "Shelton",
    "state": {
      "name": "Washington",
      "abbreviation": "WA"
    },
    "lat": "47.21"
  },
  {
    "url": "http://www.cityofshoreline.com/",
    "long": "-122.34",
    "name": "Shoreline",
    "state": {
      "name": "Washington",
      "abbreviation": "WA"
    },
    "lat": "47.75"
  },
  {
    "url": "http://www.ci.snohomish.wa.us/",
    "long": "-122.09",
    "name": "Snohomish",
    "state": {
      "name": "Washington",
      "abbreviation": "WA"
    },
    "lat": "47.91"
  },
  {
    "url": "http://www.ci.snoqualmie.wa.us/",
    "long": "-121.82",
    "name": "Snoqualmie",
    "state": {
      "name": "Washington",
      "abbreviation": "WA"
    },
    "lat": "47.52"
  },
  {
    "url": "http://www.spokanecity.org/",
    "long": "-117.42",
    "name": "Spokane",
    "state": {
      "name": "Washington",
      "abbreviation": "WA"
    },
    "lat": "47.65"
  },
  {
    "url": "http://www.spokanevalley.org/",
    "long": "-117.23",
    "name": "Spokane Valley",
    "state": {
      "name": "Washington",
      "abbreviation": "WA"
    },
    "lat": "47.67"
  },
  {
    "url": "http://www.ci.steilacoom.wa.us/",
    "long": "-122.6",
    "name": "Steilacoom",
    "state": {
      "name": "Washington",
      "abbreviation": "WA"
    },
    "lat": "47.16"
  },
  {
    "url": "http://www.ci.sultan.wa.us/",
    "long": "-121.81",
    "name": "Sultan",
    "state": {
      "name": "Washington",
      "abbreviation": "WA"
    },
    "lat": "47.86"
  },
  {
    "url": "http://www.ci.sumner.wa.us/",
    "long": "-122.24",
    "name": "Sumner",
    "state": {
      "name": "Washington",
      "abbreviation": "WA"
    },
    "lat": "47.2"
  },
  {
    "url": "http://www.ci.sunnyside.wa.us/",
    "long": "-120",
    "name": "Sunnyside",
    "state": {
      "name": "Washington",
      "abbreviation": "WA"
    },
    "lat": "46.32"
  },
  {
    "url": "http://www.cityoftacoma.org/",
    "long": "-122.44",
    "name": "Tacoma",
    "state": {
      "name": "Washington",
      "abbreviation": "WA"
    },
    "lat": "47.25"
  },
  {
    "url": "http://www.tonasketcity.org/",
    "long": "-119.43",
    "name": "Tonasket",
    "state": {
      "name": "Washington",
      "abbreviation": "WA"
    },
    "lat": "48.7"
  },
  {
    "url": "http://www.ci.tumwater.wa.us/",
    "long": "-122.9",
    "name": "Tumwater",
    "state": {
      "name": "Washington",
      "abbreviation": "WA"
    },
    "lat": "47"
  },
  {
    "url": "http://www.ci.union-gap.wa.us/",
    "long": "-120.47",
    "name": "Union Gap",
    "state": {
      "name": "Washington",
      "abbreviation": "WA"
    },
    "lat": "46.55"
  },
  {
    "url": "http://www.ci.university-place.wa.us/",
    "long": "-122.55",
    "name": "University Place",
    "state": {
      "name": "Washington",
      "abbreviation": "WA"
    },
    "lat": "47.23"
  },
  {
    "url": "http://www.aberdeeninfo.com/",
    "long": "-123.81",
    "name": "Aberdeen",
    "state": {
      "name": "Washington",
      "abbreviation": "WA"
    },
    "lat": "46.97"
  },
  {
    "url": "http://www.cityofvancouver.us/",
    "long": "-122.66",
    "name": "Vancouver",
    "state": {
      "name": "Washington",
      "abbreviation": "WA"
    },
    "lat": "45.63"
  },
  {
    "url": "http://www.ci.walla-walla.wa.us/",
    "long": "-118.34",
    "name": "Walla Walla",
    "state": {
      "name": "Washington",
      "abbreviation": "WA"
    },
    "lat": "46.06"
  },
  {
    "url": "http://www.town.almira.wa.us/",
    "long": "-118.94",
    "name": "Almira",
    "state": {
      "name": "Washington",
      "abbreviation": "WA"
    },
    "lat": "47.71"
  },
  {
    "url": "http://www.cityofanacortes.org/",
    "long": "-122.61",
    "name": "Anacortes",
    "state": {
      "name": "Washington",
      "abbreviation": "WA"
    },
    "lat": "48.51"
  }
]